<?xml version="1.0" encoding="UTF-8"?>
<gpx version="1.1" creator="Lottes Runden" xmlns="http://www.topografix.com/GPX/1/1">
  <metadata><name>Margaretenplatz-Runde (Dienstag)</name></metadata>
  <rte>
    <name>Margaretenplatz-Runde</name>
    <rtept lat="48.19580" lon="16.35640"><name>Start: Magdalenenstraße 4</name></rtept>
    <rtept lat="48.19650" lon="16.35500"><name>Stiegengasse</name></rtept>
    <rtept lat="48.19720" lon="16.35380"><name>Pilgramgasse</name></rtept>
    <rtept lat="48.19600" lon="16.35300"><name>Margaretenplatz</name></rtept>
    <rtept lat="48.19480" lon="16.35310"><name>Hofgasse</name></rtept>
    <rtept lat="48.19400" lon="16.35400"><name>Schlossgasse</name></rtept>
    <rtept lat="48.19490" lon="16.35560"><name>Zentagasse</name></rtept>
    <rtept lat="48.19580" lon="16.35640"><name>Ziel: Magdalenenstraße 4</name></rtept>
  </rte>
</gpx>
